[{
  "id": "1",
  "title": "Margitsziget",
  "type": "nature",
  "address": "1138 Budapest, Margitsziget",
  "position": {
    "lat": 47.526641,
    "lng": 19.046394
  }
},

{
  "id": "2",
  "title": "Városliget (City Park)",
  "type": "nature",
  "address": "1146 Budapest, Kós Károly sétány",
  "position": {
    "lat": 47.516948,
    "lng": 19.081935
  }
},

{
  "id": "3",
  "title": "Gellért Hill",
  "type": "nature",
  "address": "1111 Budapest, Szent Gellért tér",
  "position": {
    "lat": 47.483962,
    "lng": 19.053522
  }
},

{
  "id": "4",
  "title": "Kopaszi Dam",
  "type": "nature",
  "address": "1117 Budapest, Kopaszi-gát",
  "position": {
    "lat": 47.464091,
    "lng": 19.062524
  }
},

{
  "id": "5",
  "title": "Buda Hills (Normafa)",
  "type": "nature",
  "address": "1121 Budapest, Eötvös út 57.",
  "position": {
    "lat": 47.502371,
    "lng": 18.967173
  }
},

{
  "id": "6",
  "title": "Budapest Zoo",
  "type": "nature",
  "address": "1146 Budapest, Állatkerti krt. 6-12.",
  "position": {
    "lat": 47.517927,
    "lng": 19.077525
  }
},

{
  "id": "7",
  "title": "Budakeszi Vadaspark (Zoo)",
  "type": "nature",
  "address": "2092 Budakeszi, Skót u. 4.",
  "position": {
    "lat": 47.497747,
    "lng": 18.926066
  }
},

{
  "id": "8",
  "title": "Palace of Arts",
  "type": "culture",
  "address": "1095 Budapest, Komor Marcell utca",
  "position": {
    "lat": 47.470293,
    "lng": 19.071886
  }
},

{
  "id": "9",
  "title": "Palace of Miracles",
  "type": "culture",
  "address": "1222 Budapest, Nagytétényi út 37-43.",
  "position": {
    "lat": 47.406698,
    "lng": 19.016944
  }
},

{
  "id": "10",
  "title": "Miniversum",
  "type": "culture",
  "address": "1061 Budapest, Andrássy út 12.",
  "position": {
    "lat": 47.501391,
    "lng": 19.057288
  }
},

{
  "id": "11",
  "title": "Hungarian Natural History Museum",
  "type": "culture",
  "address": "1083 Budapest, Ludovika tér",
  "position": {
    "lat": 47.481836,
    "lng": 19.085122
  }
},

{
  "id": "12",
  "title": "Hungarian Railway Museum & Park",
  "type": "culture",
  "address": "1142 Budapest, Tatai út 95.",
  "position": {
    "lat": 47.542756,
    "lng": 19.099230
  }
},

{
  "id": "13",
  "title": "Aquaworld",
  "type": "leisure",
  "address": "1044 Budapest, Íves út 16.",
  "position": {
    "lat": 47.601107,
    "lng": 19.112179
  }
},

{
  "id": "14",
  "title": "Orczy Kalandpark",
  "type": "leisure",
  "address": "1089 Budapest, Orczy út 1.",
  "position": {
    "lat": 47.481858,
    "lng": 19.087994
  }
},

{
  "id": "15",
  "title": "Children's Railway",
  "type": "leisure",
  "address": "1026 Budapest, Hűvösvölgyi út 205.",
  "position": {
    "lat": 47.541623,
    "lng": 18.965771
  }
},

{
  "id": "16",
  "title": "Libegő (Chairlift)",
  "type": "leisure",
  "address": "1121 Budapest, Zugligeti út 97.",
  "position": {
    "lat": 47.516308,
    "lng": 18.974252
  }
},

{
  "id": "17",
  "title": "Budapest Grand Circus",
  "type": "leisure",
  "address": "1146 Budapest, Állatkerti krt. 12a",
  "position": {
    "lat": 47.519495,
    "lng": 19.080979
  }
},

{
  "id": "18",
  "title": "Budapest Eye",
  "type": "leisure",
  "address": "1051 Budapest, Erzsébet tér",
  "position": {
    "lat": 47.497610,
    "lng": 19.052995
  }
},

{
  "id": "19",
  "title": "Buda Castle Funicular",
  "type": "leisure",
  "address": "1013 Budapest, Sikló u.",
  "position": {
    "lat": 47.497544,
    "lng": 19.040164
  }
},

{
  "id": "20",
  "title": "Zöld Péter at Millenáris Park",
  "type": "playground",
  "address": "1024 Fény utca 20-22.",
  "position": {
    "lat": 47.510867,
    "lng": 19.026349
  }
},

{
  "id": "21",
  "title": "Giant Slopes (Óbuda Island)",
  "type": "playground",
  "address": "1033 Budapest, Óbuda Island (Hajógyári Sziget",
  "position": {
    "lat": 47.549494,
    "lng": 19.053844
  }
},

{
  "id": "22",
  "title": "Cerka-firka (Gellért Hill)",
  "type": "playground",
  "address": "1118 Budapest, Verejték u.",
  "position": {
    "lat": 47.485067,
    "lng": 19.043351
  }
},

{
  "id": "23",
  "title": "VUK (Gellért Hill)",
  "type": "playground",
  "address": "1016 Budapest, Bérc u. 31.",
  "position": {
    "lat": 47.486362,
    "lng": 19.040223
  }
},

{
  "id": "24",
  "title": "Károlyi Gardens",
  "type": "playground",
  "address": "1053 Budapest, Károlyi-kert",
  "position": {
    "lat": 47.492114,
    "lng": 19.059711
  }
},

{
  "id": "25",
  "title": "Károlyi Gardens",
  "type": "playground",
  "address": "1053 Budapest, Károlyi-kert",
  "position": {
    "lat": 47.492114,
    "lng": 19.059711
  }
},

{
  "id": "26",
  "title": "Olimpia Park Playground",
  "type": "playground",
  "address": "1055 Budapest, Olimpia park",
  "position": {
    "lat": 47.510863,
    "lng": 19.046715
  }
}]
